$GNGGA,201004.000,4031.299878,N,07427.632962,W,1,11,1.07,29.645,M,-34.143,M,,*7E
$GNGGA,201005.000,4031.299876,N,07427.633054,W,1,11,1.02,29.354,M,-34.143,M,,*7C
$GNGGA,201006.000,4031.299860,N,07427.633106,W,1,11,1.02,29.120,M,-34.143,M,,*7F
$GNGGA,201007.000,4031.299844,N,07427.633201,W,1,11,1.02,28.941,M,-34.143,M,,*72
$GNGGA,201022.000,4031.299917,N,07427.633865,W,1,14,1.10,25.642,M,-34.143,M,,*7D
$GNGGA,201023.000,4031.299900,N,07427.633957,W,1,14,1.10,25.573,M,-34.143,M,,*7B
$GNGGA,201024.000,4031.299897,N,07427.634062,W,1,14,1.11,25.546,M,-34.143,M,,*7C
$GNGGA,201025.000,4031.299916,N,07427.634111,W,1,14,1.07,25.692,M,-34.143,M,,*7D
$GNGGA,201026.000,4031.300002,N,07427.634134,W,1,14,1.11,25.681,M,-34.143,M,,*71
$GNGGA,201027.000,4031.300019,N,07427.634153,W,1,14,1.05,25.830,M,-34.143,M,,*7A
$GNGGA,201028.000,4031.300018,N,07427.634235,W,1,14,1.09,25.844,M,-34.143,M,,*78
$GNGGA,201029.000,4031.300057,N,07427.634243,W,1,14,1.08,25.873,M,-34.143,M,,*76
$GNGGA,201030.000,4031.300057,N,07427.634243,W,1,14,1.14,25.873,M,-34.143,M,,*73
$GNGGA,201031.000,4031.300072,N,07427.634281,W,1,14,0.91,25.902,M,-34.143,M,,*70
$GNGGA,201032.000,4031.300109,N,07427.634355,W,1,14,0.90,25.919,M,-34.143,M,,*7D
$GNGGA,201033.000,4031.300122,N,07427.634384,W,1,14,0.91,25.953,M,-34.144,M,,*71
$GNGGA,201034.000,4031.300130,N,07427.634412,W,1,14,1.00,25.992,M,-34.143,M,,*7E
$GNGGA,201035.000,4031.300166,N,07427.634494,W,1,14,0.90,26.061,M,-34.143,M,,*7C
$GNGGA,201036.000,4031.300185,N,07427.634549,W,1,14,0.91,26.231,M,-34.143,M,,*75
$GNGGA,201037.000,4031.300055,N,07427.634486,W,1,14,0.87,26.209,M,-34.143,M,,*76
$GNGGA,201038.000,4031.300059,N,07427.634107,W,1,14,0.84,26.312,M,-34.143,M,,*71
$GNGGA,201039.000,4031.300053,N,07427.633444,W,1,14,0.92,26.438,M,-34.143,M,,*77
$GNGGA,201040.000,4031.299743,N,07427.632678,W,1,14,0.98,26.504,M,-34.143,M,,*76
$GNGGA,201041.000,4031.299408,N,07427.631950,W,1,13,0.86,26.572,M,-34.143,M,,*74
$GNGGA,201042.000,4031.299130,N,07427.631239,W,1,13,0.86,26.650,M,-34.143,M,,*7E
$GNGGA,201043.000,4031.298815,N,07427.630487,W,1,13,1.00,26.683,M,-34.143,M,,*73
$GNGGA,201044.000,4031.298509,N,07427.629695,W,1,13,1.00,26.706,M,-34.144,M,,*76
$GNGGA,201045.000,4031.298201,N,07427.628912,W,1,13,1.00,26.677,M,-34.143,M,,*79
$GNGGA,201046.000,4031.297846,N,07427.628149,W,1,13,0.97,26.748,M,-34.143,M,,*78
$GNGGA,201047.000,4031.297486,N,07427.627381,W,1,13,0.96,26.913,M,-34.143,M,,*71
$GNGGA,201048.000,4031.297055,N,07427.626678,W,1,14,0.94,26.816,M,-34.143,M,,*77
$GNGGA,201049.000,4031.296696,N,07427.625956,W,1,14,0.94,26.662,M,-34.144,M,,*74
$GNGGA,201050.000,4031.296212,N,07427.625221,W,1,14,0.96,26.627,M,-34.143,M,,*7B
$GNGGA,201051.000,4031.295798,N,07427.624397,W,1,14,1.29,26.684,M,-34.143,M,,*7F
$GNGGA,201052.000,4031.295538,N,07427.623651,W,1,14,1.11,26.277,M,-34.143,M,,*7F
$GNGGA,201053.000,4031.295331,N,07427.622926,W,1,14,1.11,26.143,M,-34.143,M,,*7B
$GNGGA,201054.000,4031.294850,N,07427.622421,W,1,14,1.08,26.208,M,-34.144,M,,*78
$GNGGA,201055.000,4031.294542,N,07427.622377,W,1,14,1.08,26.076,M,-34.144,M,,*78
$GNGGA,201056.000,4031.294029,N,07427.622523,W,1,14,0.91,26.023,M,-34.144,M,,*75
$GNGGA,201057.000,4031.293433,N,07427.622872,W,1,14,0.91,25.987,M,-34.143,M,,*76
$GNGGA,201058.000,4031.292787,N,07427.623210,W,1,14,0.91,25.891,M,-34.143,M,,*7D
$GNGGA,201059.000,4031.292277,N,07427.623424,W,1,13,0.93,25.486,M,-34.143,M,,*78
$GNGGA,201100.000,4031.291731,N,07427.623729,W,1,13,0.93,25.274,M,-34.143,M,,*74
$GNGGA,201101.000,4031.291191,N,07427.624124,W,1,13,0.93,25.405,M,-34.143,M,,*75
$GNGGA,201102.000,4031.290674,N,07427.624472,W,1,13,0.93,25.488,M,-34.143,M,,*78
$GNGGA,201103.000,4031.290202,N,07427.624774,W,1,14,0.91,25.433,M,-34.143,M,,*7C
$GNGGA,201104.000,4031.289584,N,07427.625124,W,1,14,0.91,25.707,M,-34.144,M,,*7B
$GNGGA,201105.000,4031.289058,N,07427.625445,W,1,14,0.91,25.648,M,-34.144,M,,*76
$GNGGA,201106.000,4031.288551,N,07427.625915,W,1,14,0.91,25.480,M,-34.143,M,,*71
$GNGGA,201107.000,4031.288143,N,07427.626231,W,1,14,0.92,25.203,M,-34.143,M,,*77
$GNGGA,201108.000,4031.287718,N,07427.626542,W,1,14,0.91,25.100,M,-34.143,M,,*7F
$GNGGA,201109.000,4031.287320,N,07427.627008,W,1,14,0.91,24.980,M,-34.143,M,,*7A
$GNGGA,201110.000,4031.287018,N,07427.627307,W,1,14,0.91,24.813,M,-34.144,M,,*7A
$GNGGA,201111.000,4031.287031,N,07427.627363,W,1,14,0.91,24.641,M,-34.143,M,,*7C
$GNGGA,201112.000,4031.287247,N,07427.627837,W,1,14,0.91,25.155,M,-34.143,M,,*75
$GNGGA,201113.000,4031.287581,N,07427.628507,W,1,14,0.92,25.442,M,-34.143,M,,*78
$GNGGA,201114.000,4031.287962,N,07427.629311,W,1,14,0.84,25.598,M,-34.143,M,,*7F
$GNGGA,201115.000,4031.288331,N,07427.629880,W,1,14,0.84,25.984,M,-34.144,M,,*78
$GNGGA,201116.000,4031.288671,N,07427.630641,W,1,14,0.84,26.018,M,-34.144,M,,*7E
$GNGGA,201117.000,4031.288979,N,07427.631360,W,1,14,0.85,26.068,M,-34.144,M,,*79
$GNGGA,201118.000,4031.289446,N,07427.631970,W,1,14,0.84,26.600,M,-34.143,M,,*73
$GNGGA,201119.000,4031.289837,N,07427.632640,W,1,14,0.85,26.943,M,-34.143,M,,*7E
$GNGGA,201120.000,4031.290282,N,07427.633352,W,1,14,0.84,27.212,M,-34.143,M,,*70
$GNGGA,201121.000,4031.290614,N,07427.634076,W,1,14,0.87,27.416,M,-34.143,M,,*79
$GNGGA,201122.000,4031.290884,N,07427.634817,W,1,14,0.87,27.551,M,-34.143,M,,*70
$GNGGA,201123.000,4031.291135,N,07427.635609,W,1,14,0.87,27.673,M,-34.143,M,,*70
$GNGGA,201124.000,4031.291481,N,07427.636433,W,1,14,0.82,27.676,M,-34.143,M,,*75
$GNGGA,201125.000,4031.291568,N,07427.637047,W,1,14,0.91,27.899,M,-34.143,M,,*79
$GNGGA,201126.000,4031.291813,N,07427.637521,W,1,14,0.91,28.174,M,-34.143,M,,*7B
$GNGGA,201127.000,4031.292061,N,07427.637544,W,1,14,0.91,28.216,M,-34.143,M,,*70
$GNGGA,201128.000,4031.292410,N,07427.636890,W,1,14,0.84,28.711,M,-34.143,M,,*7E
$GNGGA,201129.000,4031.293020,N,07427.636224,W,1,13,0.91,29.226,M,-34.143,M,,*7F
$GNGGA,201130.000,4031.293590,N,07427.635611,W,1,13,0.91,29.751,M,-34.144,M,,*7A
$GNGGA,201131.000,4031.294277,N,07427.635032,W,1,14,0.84,29.934,M,-34.143,M,,*7C
$GNGGA,201132.000,4031.294847,N,07427.634499,W,1,14,0.84,29.973,M,-34.144,M,,*76
$GNGGA,201133.000,4031.295416,N,07427.634023,W,1,13,0.91,30.034,M,-34.143,M,,*7D
$GNGGA,201134.000,4031.295952,N,07427.633515,W,1,14,0.84,29.862,M,-34.143,M,,*70
$GNGGA,201135.000,4031.296434,N,07427.633057,W,1,13,0.91,29.595,M,-34.143,M,,*7A
$GNGGA,201136.000,4031.296807,N,07427.632625,W,1,14,0.84,29.589,M,-34.143,M,,*79
$GNGGA,201137.000,4031.297237,N,07427.632215,W,1,13,0.91,29.650,M,-34.143,M,,*73
$GNGGA,201138.000,4031.297565,N,07427.631899,W,1,13,0.91,29.745,M,-34.143,M,,*74
$GNGGA,201139.000,4031.298151,N,07427.631548,W,1,13,1.07,29.820,M,-34.143,M,,*7A
$GNGGA,201140.000,4031.298855,N,07427.631085,W,1,14,1.07,29.770,M,-34.143,M,,*70
$GNGGA,201141.000,4031.299222,N,07427.630759,W,1,14,0.91,29.813,M,-34.143,M,,*79
$GNGGA,201142.000,4031.299506,N,07427.630621,W,1,14,0.89,29.516,M,-34.143,M,,*74
$GNGGA,201143.000,4031.299550,N,07427.630563,W,1,14,0.89,29.761,M,-34.143,M,,*71
$GNGGA,201144.000,4031.299569,N,07427.630770,W,1,14,0.84,29.580,M,-34.143,M,,*7C
$GNGGA,201145.000,4031.299569,N,07427.630770,W,1,14,0.84,29.580,M,-34.143,M,,*7D
$GNGGA,201146.000,4031.299547,N,07427.630794,W,1,14,0.92,29.633,M,-34.143,M,,*74
